{"results": [{"id": "AF6AEA3C719753289E8C5C583AD65153", "name": "Sri Buvana Shakthi Clinic", "address": "No.9, Green Peace, Shakti Apartments, 2nd Main Rd, Sri Sai Nagar, Thoraipakkam, Chennai, Tamil Nadu 600097, India", "phone_number": "+919092467899", "location": {"lat": 12.953204, "lng": 80.234963}, "types": ["doctor", "health", "hospital"], "distance": 167}, {"id": "EA84A4994980F0A92D659E13D580B529", "name": "SHADITHYA PSYCHIATRIC CLINIC (OMR)", "address": "No: 2, SHADITHYA CLINIC, 200 Feet Radial Rd, Sri Sai Nagar, Thoraipakkam, Chennai, Tamil Nadu 600097, India", "phone_number": "+918925566777", "website": "https://www.shadithyahospital.com/outpatients-clinic/", "location": {"lat": 12.950241, "lng": 80.235026}, "types": ["doctor", "health", "hospital"], "distance": 406}, {"id": "3AD010F03F71BCB4D49704BE4F9E3273", "name": "Government Veterinary Hospital - Perungudi", "address": "31, Veera Pandia Kattabomman St, Phase-1, Vijayendra Nagar, Perungudi, Chennai, Tamil Nadu 600096, India", "location": {"lat": 12.95896, "lng": 80.234249}, "types": ["health", "hospital"], "distance": 607}, {"id": "2B1AFA01F408230687479DA19B75EC8F", "name": "Poto Health", "address": "US, CHENNAI ONE IT SEZ, Pallavaram-Thuraipakkam Rd, MCN Nagar Extension, Thoraipakkam, Chennai, Tamil Nadu 600097, India", "location": {"lat": 12.94796, "lng": 80.232019}, "types": ["health", "hospital"], "distance": 643}, {"id": "C1C23F64A7BF3A54C07CDCB8A3545838", "name": "First Care Pharmacy", "address": "1/548 Pillayar Kovil Street MCN Extension Thoraipakam, MCN Nagar Extension, Chennai, Tamil Nadu 600097, India", "phone_number": "+916374671367", "location": {"lat": 12.949365, "lng": 80.23773}, "types": ["health", "hospital"], "distance": 657}, {"id": "F02D9CA33CD4A1F3C7EE7E522E95FE58", "name": "Medcross Bone And Joint Hospital", "address": "No.6, 200 Feet Radial Rd, Seevaram, Thoraipakkam, Chennai, Tamil Nadu 600097, India", "location": {"lat": 12.949839, "lng": 80.238324}, "types": ["health", "hospital"], "distance": 670}, {"id": "B06C6C42003B8C267A53CA7DE9E37B7F", "name": "AR AYURVEDA VAIDYA SALA", "address": "1&2, Pillayar kovil St, MCN Nagar Extension, Thoraipakkam, Chennai, Tamil Nadu 600097, India", "phone_number": "+918939472196", "website": "http://arayur.com/", "location": {"lat": 12.948817, "lng": 80.237641}, "types": ["health", "hospital"], "distance": 695}, {"id": "65D02F66D198A1DF43BC236D9444369F", "name": "ATS Physiotherapy clinic", "address": "No.6, 200 Feet Radial Rd, Seevaram, Thoraipakkam, Chennai, Tamil Nadu 600097, India", "phone_number": "+917598296098", "location": {"lat": 12.949725, "lng": 80.238918}, "types": ["doctor", "health", "hospital"], "distance": 729}, {"id": "881C071C42310641C39AC0A5B5053C9B", "name": "ATS Dental Clinic", "address": "No.6 First Floor, 200 Feet Radial Rd, Seevaram, Thoraipakkam, Chennai, Tamil Nadu 600097, India", "phone_number": "+917598296098", "website": "https://atsdentalclinic.com/", "location": {"lat": 12.949707, "lng": 80.23895}, "types": ["dentist", "doctor", "health", "hospital"], "distance": 733}, {"id": "7A275406B5B70F03583198906AD3E5DF", "name": "SRIMATHA CANCER CARE", "address": "SMCC, TOWER-1, 808, Pillaiyar Koil St, MCN Nagar Extension, Thoraipakkam, Chennai, Tamil Nadu 600097, India", "phone_number": "+918148804012", "website": "http://www.srimathacancercare.com/", "location": {"lat": 12.947907, "lng": 80.237357}, "types": ["health", "hospital"], "distance": 758}, {"id": "8C0BAABED82988BAFCF778FF89564ED7", "name": "ARC Fertility Hospitals", "address": "114, Corporation Rd, Seevaram, Perungudi, Chennai, Tamil Nadu 600096, India", "phone_number": "+917811999999", "website": "https://www.arcivf.com/", "location": {"lat": 12.95449, "lng": 80.240647}, "types": ["health", "hospital"], "distance": 785}, {"id": "7E9ADC93C73EDB7C59B04B11E82ADC65", "name": "mywork", "address": "W6WM+HG3, 4th Cross St, R.E. Nagar Extension, Anand Nagar, MCN Nagar Extension, Thoraipakkam, Chennai, Tamil Nadu 600097, India", "location": {"lat": 12.946382, "lng": 80.233777}, "types": ["health", "hospital"], "distance": 800}, {"id": "47298D35662F19461F11FD4E2070B951", "name": "IMPCOPS HOSPITAL & PANCHAKARMA CENTRE", "address": "2/609, POST OFFICE STREET, OKIUM, Thuraipakkam, Seevaram, Thoraipakkam, Chennai, Tamil Nadu 600097, India", "phone_number": "+919150437555", "website": "https://impcops.org/", "location": {"lat": 12.949948, "lng": 80.240121}, "types": ["health", "hospital"], "distance": 826}, {"id": "558D9A7979DCEDCC02D4EF92765FF777", "name": "Aush Saukya Kenddra", "address": "#9, Seevaram 3rd St, Seevaram, Perungudi, Chennai, Tamil Nadu 600096, India", "location": {"lat": 12.953426, "lng": 80.241263}, "types": ["health", "hospital"], "distance": 846}, {"id": "BFB8B41E78750B0CC81B1987BDD528D5", "name": "CURI HOSPITAL", "address": "No: 148, 2nd floor, Rajiv Gandhi Salai, Seevaram, Thoraipakkam, Chennai, Tamil Nadu 600096, India", "phone_number": "+914424964555", "website": "https://www.chennaiurologyandroboticsinstitute.com/clinical-laboratory.php", "location": {"lat": 12.952082, "lng": 80.241403}, "types": ["health", "hospital"], "distance": 876}, {"id": "13DC28653C3CC1003EDD96F473139FD7", "name": "Dr. N Aswath Ram, 18+ yrs of Exp | Best Dentist in Kanchipuram | RCT | Wisdom Teeth Removal", "address": "OMR, PERUNGUDI NARAYANAN DENTAL, SUBHAS DENTAL CLINIC, 1/23 A, Seevaram 1st St, Seevaram, Perungudi, Chennai, Tamil Nadu 600096, India", "phone_number": "+918046961837", "website": "https://www.apollo247.com/doctors/dr-Aswath-Narayanan-39d4fcec-24cf-46d0-885e-71f8cd18caf2", "location": {"lat": 12.952624, "lng": 80.241574}, "types": ["dentist", "doctor", "health", "hospital"], "distance": 885}, {"id": "C4D4135A2D34F0E65A1C3BB466B54738", "name": "SUBAM HEALTH CARE", "address": "45, Rajiv Gandhi IT Expy, Seevaram Salai, Seevaram, Perungudi, Chennai, Tamil Nadu 600096, India", "phone_number": "+919080405081", "location": {"lat": 12.952085, "lng": 80.241883}, "types": ["health", "hospital"], "distance": 927}, {"id": "1B5C6D98085D14A3BCABCB661E3A70CA", "name": "Arun Dental Care", "address": "32, Rajiv Gandhi Salai, Seevaram, Perungudi, Chennai, Tamil Nadu 600096, India", "website": "http://www.drarundentalcenter.com/", "location": {"lat": 12.952918, "lng": 80.242203}, "types": ["health", "hospital"], "distance": 950}, {"id": "3B53585F67FF9E742574859BF5523589", "name": "C.M. Hospital", "address": "No. 16, Rajiv Gandhi IT Expressway, Rajiv Gandhi Salai, Seevaram, Perungudi, Chennai, Tamil Nadu 600096, India", "phone_number": "+914424963536", "location": {"lat": 12.95329, "lng": 80.242362}, "types": ["health", "hospital"], "distance": 965}, {"id": "6C4E3666957FC3E123376E53CDFC8B45", "name": "Super pharmacy", "address": "31, Rajiv Gandhi Salai, MCN Nagar, Stuarpet, Arakkonam, Chennai, Tamil Nadu 631001, India", "location": {"lat": 12.94486, "lng": 80.234209}, "types": ["health", "hospital"], "distance": 972}]}